[
  {
    "placeId": "ChIJXT1UL1ovW4YRZ8-jYNFZYDw",
    "name": "Lucky Rabbit Live Music Bar & Kitchen",
    "address": "18626 RM 1431, Jonestown, TX 78645, USA",
    "latitude": 30.494431799999997,
    "longitude": -97.9251336
  },
  {
    "placeId": "ChIJQ1asA9a1RIYRwTo5i529--U",
    "name": "Sa-Tén @ Canopy",
    "address": "916 Springdale Rd Bldg 3, #101, Austin, TX 78702, USA",
    "latitude": 30.2619249,
    "longitude": -97.6989631
  },
  {
    "placeId": "ChIJj_rke0QzW4YRPM3jXByyFUo",
    "name": "四姐 Special Noodle",
    "address": "13729 Research Blvd #695, Austin, TX 78750, USA",
    "latitude": 30.458869399999998,
    "longitude": -97.7911274
  },
  {
    "placeId": "ChIJKaWPOsS1RIYRgsOYPQjX0Zs",
    "name": "Frazier's Long & Low",
    "address": "2538 Elmont Dr, Austin, TX 78741, USA",
    "latitude": 30.239321699999998,
    "longitude": -97.71983929999999
  },
  {
    "placeId": "ChIJ_wRmKo3PRIYRWEfrNJG92gw",
    "name": "Arepitas (Round Rock)",
    "address": "910 Round Rock Ave, Round Rock, TX 78681, USA",
    "latitude": 30.511893299999997,
    "longitude": -97.69161659999999
  },
  {
    "placeId": "ChIJ5fACUSclW4YRpfJNSDWXOmY",
    "name": "Bella Vista",
    "address": "7708 Lohman Ford Rd #108, Lago Vista, TX 78645, USA",
    "latitude": 30.473830099999997,
    "longitude": -97.9765812
  }
]
